[
    {
        "ecoponto": "Viaduto Engenheiro Alberto Badra",
        "endereco": "Avenida Aricanduva, nº 200 - Praça Lúcia Mekhitarian – Bairro: Aricanduva (baixo do Viaduto Engenheiro Alberto Badra)",
        "cep": "03501-010",
        "latitude": -23.5465,
        "longitude": -46.5260
    },
    {
        "ecoponto": "Astarte",
        "endereco": "Rua Astarte, nº 500 – Bairro: Vila Carrão",
        "cep": "03446-090",
        "latitude": -23.5493,
        "longitude": -46.5383
    },
    {
        "ecoponto": "Nova York",
        "endereco": "Rua Amélia Vanso Magnoli, nº 480 – Bairro: Conjunto Habitacional Barreira Grande",
        "cep": "03907-010",
        "latitude": -23.6074,
        "longitude": -46.5311
    },
    {
        "ecoponto": "Aricanduva I",
        "endereco": "Rua Professor Alzira de Oliveira Gilioli, nº 400 – Bairro: Jardim Nice",
        "cep": "03905-090",
        "latitude": -23.5505,
        "longitude": -46.5440
    },
    {
        "ecoponto": "Jardim Maria do Carmo",
        "endereco": "Rua Caminho do Engenho, nº 800 – Bairro: Ferreira",
        "cep": "05524-000",
        "latitude": -23.5725,
        "longitude": -46.7281
    },
    {
        "ecoponto": "Jardim Jaqueline",
        "endereco": "Parque Raposo Tavares - Rua Walter Brito Belletti, s/nº - Bairro: Vila Albano",
        "cep": "05543-040",
        "latitude": -23.5895,
        "longitude": -46.7483
    },
    
    {
        "ecoponto": "Politécnica",
        "endereco": "Rua Paulino Baptista Conti, nº 2 – Bairro: Jardim Sarah",
        "cep": "05382-140",
        "latitude": -23.561029,
        "longitude": -46.725736
    },
    {
        "ecoponto": "Giovani Gronchi",
        "endereco": "Avenida Giovani Gronchi, nº 3413 – Bairro: Morumbi",
        "cep": "05651-002",
        "latitude": -23.633502,
        "longitude": -46.725986
    },
    {
        "ecoponto": "Santo Dias",
        "endereco": "Travessa Rosifloras, nº 301 – Bairro: Conjunto Habitacional Instituto Adventista",
        "cep": "05868-600",
        "latitude": -23.689686,
        "longitude": -46.736485
    },
    {
        "ecoponto": "Parque Fernanda",
        "endereco": "Avenida Doutor Salvador Rocco, nº 261, defronte Rua Antônio Cânon – Bairro: Parque",
        "cep": "05888-050",
        "latitude": -23.707831,
        "longitude": -46.740413
    },
    {
        "ecoponto": "Olinda",
        "endereco": "Rua Nelson Brissac, nº 1235, esquina com Avenida Padre Adolfo Kolping – Bairro: Parque Regina –",
        "cep": "05773-110",
        "latitude": -23.659717,
        "longitude": -46.742157
    },
    {
        "ecoponto": "Vila das Belezas",
        "endereco": "Rua Campo Novo do Sul, nº 500 – Bairro: Vila Andrade",
        "cep": "05729-100",
        "latitude": -23.636013,
        "longitude": -46.734177
    },
    {
        "ecoponto": "Paraisópolis",
        "endereco": "Rua Irapará, nº 73 – Bairro: Paraíso do Morumbi",
        "cep": "05706-300",
        "latitude": -23.622814,
        "longitude": -46.717331
    },
    {
        "ecoponto": "Cidade Saudável",
        "endereco": "Rua Ptolomeu, nº 869 – Bairro: Vila Socorro",
        "cep": "04762-040",
        "latitude": -23.669992,
        "longitude": -46.709279
    },
    {
        "ecoponto": "Geraldo Honório",
        "endereco": "Rua Geraldo Honório da Silva, 280 (altura) - Bairro: Parque Grajaú",
        "cep": "04843-650",
        "latitude": -23.781266,
        "longitude": -46.696751
    },
    {
        "ecoponto": "Parque Peruche",
        "endereco": "Avenida Engenheiro Caetano Álvares, nº 3142 – Bairro: Parque Peruche",
        "cep": "02535-008",
        "latitude": -23.505061,
        "longitude": -46.681672
    },
    {
        "ecoponto": "Vila Nova Cachoeirinha",
        "endereco": "Rua Felix Alves Pereira, nº 113 – Bairro: Jardim Centenário",
        "cep": "02882-030",
        "latitude": -23.448924,
        "longitude": -46.693487
    },
    {
        "ecoponto": "Vila Santa Maria",
        "endereco": "Rua André Bolsena com a Travessa Luiz Sá – Bairro Vila Santista",
        "cep": "02560-170",
        "latitude": -23.497392,
        "longitude": -46.666874
    },
    {
        "ecoponto": "Jardim Antártica",
        "endereco": "Rua Dom Aquino, nº 103 – Bairro: Jardim Antártica",
        "cep": "02652-170",
        "latitude": -23.474911,
        "longitude": -46.600676
    },
    {
        "ecoponto": "São Leandro",
        "endereco": "Rua São Leandro, nº 13 – Bairro: Vila Palmeiras",
        "cep": "02725-010",
        "latitude": -23.494556,
        "longitude": -46.673337
    },
    {
        "ecoponto": "Alvarenga",
        "endereco": "Estrada do Alvarenga, nº 2475 – Bairro: Balneário Mar Paulista",
        "cep": "04467-000",
        "latitude": -23.700773,
        "longitude": -46.646777
    },
    {
        "ecoponto": "Cupecê",
        "endereco": "Rua Anália Maria de Jesus, nº 130 – Trav. Av. Cupecê – Bairro: Jardim Itacolomi",
        "cep": "04385-110",
        "latitude": -23.656843,
        "longitude": -46.679951
    },
    {
        "ecoponto": "Nascer do Sol",
        "endereco": "Rua Nascer do Sol, nº 356 – Bairro: Conjunto Habitacional Santa Etelvina II",
        "cep": "08485-020",
        "latitude": -23.583168,
        "longitude": -46.386977
    },
    {
        "ecoponto": "Setor G",
        "endereco": "Rua Alfonso Asturaro, altura do nº 600 – Bairro: Conjunto Habitacional Barro Branco II",
        "cep": "08473-591",
        "latitude": -23.580152,
        "longitude": -46.366516
    },
    {
        "ecoponto": "Inácio Monteiro",
        "endereco": "Rua Regresso Feliz, nº 1190 - Bairro: Conjunto Habitacional Inácio Monteiro",
        "cep": "08472-210",
        "latitude": -23.610651,
        "longitude": -46.389738
    },    {
        "ecoponto": "Jardim São Nicolau",
        "endereco": "Rua Agreste de Itabaiana, nº 590, esquina com a Rua Eduardo Kyioshi Shimuta – Bairro: Vila União (Zona Leste)",
        "cep": "03683-000",
        "latitude": -23.484037,
        "longitude": -46.457235
    },
    {
        "ecoponto": "Jardim São Nicolau",
        "endereco": "Rua Agreste de Itabaiana, nº 590, esquina com a Rua Eduardo Kyioshi Shimuta – Bairro: Vila União (Zona Leste)",
        "cep": "03683-000",
        "latitude": -23.484037,
        "longitude": -46.457235
    },
    {
        "ecoponto": "Boturussu",
        "endereco": "Rua Nélio Batista Guimarães, nº 183 – Bairro: Parque Boturussu",
        "cep": "03802-005",
        "latitude": -23.509465,
        "longitude": -46.483214
    },
    {
        "ecoponto": "Bandeirantes",
        "endereco": "Rua Itaiquara, nº 237 - Bairro: Itaberaba",
        "cep": "02803-050",
        "latitude": -23.476960,
        "longitude": -46.718675
    },
    {
        "ecoponto": "Freguesia do Ó",
        "endereco": "Rua Sousa Filho, nº 690 – Bairro: Vila União (Zona Norte)",
        "cep": "02911-135",
        "latitude": -23.500100,
        "longitude": -46.687375
    },
    {
        "ecoponto": "Vila Rica",
        "endereco": "Rua Jorge Mamede da Silva, nº 200 – Bairro: Vila Souza",
        "cep": "02860-050",
        "latitude": -23.462107,
        "longitude": -46.695312
    },
    {
        "ecoponto": "Jardim São Paulo",
        "endereco": "Rua Utaro Kanai, nº 374 – Bairro: Conjunto Habitacional Juscelino Kubitschek",
        "cep": "08465-000",
        "latitude": -23.495940,
        "longitude": -46.477923
    },
    {
        "ecoponto": "Guaiaponto",
        "endereco": "Rua da Passagem Funda, nº 250 – Bairro: Vila Santa Cruz (Zona Leste)",
        "cep": "08411-010",
        "latitude": -23.591155,
        "longitude": -46.437399
    },
    {
        "ecoponto": "Lajeado",
        "endereco": "Rua Isabela, nº405 – Bairro: Jardim Lajeado",
        "cep": "08411-010",
        "latitude": -23.588739,
        "longitude": -46.418312
    },
    {
        "ecoponto": "Padre Nildo do Amaral",
        "endereco": "Rua Padre Nildo do Amaral Júnior, nº 900 – Bairro: Vila Nova Curuçá",
        "cep": "08032-650",
        "latitude": -23.509990,
        "longitude": -46.440348
    },
    {
        "ecoponto": "Tereza Cristina",
        "endereco": "Rua Tereza Cristina, nº 10, esquina com Avenida do Estado – Bairro: Vila Monumento",
        "cep": "01553-000",
        "latitude": -23.587205,
        "longitude": -46.618317
    },
    {
        "ecoponto": "Santa Cruz",
        "endereco": "Rua Santa Cruz, nº 1452 (Baixo do Viaduto Santa Cruz) – Bairro: Vila Mariana",
        "cep": "04122-000",
        "latitude": -23.595454,
        "longitude": -46.634309
    },
    {
        "ecoponto": "Vila das Mercês",
        "endereco": "Rua Italva, nº 86 – Bairro: Saúde",
        "cep": "04294-030",
        "latitude": -23.609585,
        "longitude": -46.620625
    },
    {
        "ecoponto": "Comandante Taylor",
        "endereco": "Rua Comandante Taylor, nº 690 (Baixo do Viaduto Comandante Taylor) – Bairro: Ipiranga",
        "cep": "04218-000",
        "latitude": -23.614912,
        "longitude": -46.610258
    },
    {
        "ecoponto": "Moreira",
        "endereco": "Rua João Batista de Godói, nº 1164 – Bairro: Jardim das Oliveiras",
        "cep": "08111-430",
        "latitude": -23.514253,
        "longitude": -46.433993
    },
    {
        "ecoponto": "Mãe Preta",
        "endereco": "Avenida Dama Entre Verdes, nº 21, - Bairro: Vila Curuçá",
        "cep": "08030-610",
        "latitude": -23.513314,
        "longitude": -46.433063
    },
    {
        "ecoponto": "Pesqueiro",
        "endereco": "Rua Caiuás, nº 18, esquina com a Avenida Itamerendiba – Bairro: Jardim Ida Guedes",
        "cep": "08120-580",
        "latitude": -23.512429,
        "longitude": -46.433660
    },
    {
        "ecoponto": "Flamingo",
        "endereco": "Rua Alexandre Dias Nogueira, nº353 – Bairro: Vila Nova Curuçá",
        "cep": "08031-240",
        "latitude": -23.513302,
        "longitude": -46.431546
    },
    {
        "ecoponto": "Itaim Paulista",
        "endereco": "Rua Barão de Almeida Galeão, altura do nº61 – Bairro: Itaim Paulista",
        "cep": "08575-210",
        "latitude": -23.502292,
        "longitude": -46.404189
    },
    {
        "ecoponto": "Jardim Indaiá",
        "endereco": "Rua Rossini Pinto, altura do nº 214 – Bairro: Jardim Indaiá",
        "cep": "08143-030",
        "latitude": -23.515238,
        "longitude": -46.433526
    },
    {
    "ecoponto": "Parque Guarani",
    "endereco": "Rua Manuel Alves da Rocha, nº 584 – Bairro: Parque Guarani",
    "cep": "08235-620",
    "latitude": -23.522285,
    "longitude": -46.477405
    },   
    {
        "ecoponto": "Oswaldo Valle Cordeiro",
        "endereco": "Av. Osvaldo Valle Cordeiro, nº 405 – Bairro: Jardim Brasília (Zona Leste)",
        "cep": "03584-000",
        "latitude": -23.533838,
        "longitude": -46.432729
    },
    {
        "ecoponto": "Cidade Lider",
        "endereco": "Rua Charles Manguin, nº 20- Bairro: Jardim Marília",
        "cep": "03579-150",
        "latitude": -23.560527,
        "longitude": -46.487042
    },
    {
        "ecoponto": "Parque do Carmo",
        "endereco": "Rua Machado Nunes, nº 95 – Bairro: Jardim Nossa Senhora do Carmo",
        "cep": "08275-310",
        "latitude": -23.570222,
        "longitude": -46.448776
    },
    {
        "ecoponto": "Corinthians",
        "endereco": "Rua Ana Perena, nº 155 – Bairro: Conjunto Residencial José Bonifácio",
        "cep": "08253-230",
        "latitude": -23.617103,
        "longitude": -46.448363
    },
    {
        "ecoponto": "Caldeirão",
        "endereco": "Rua Major Vitorino de Souza Rocha, altura do nº148 – Bairro: Vila Santa Teresinha",
        "cep": "08247-080",
        "latitude": -23.593087,
        "longitude": -46.451531
    },
    {
        "ecoponto": "Imigrantes",
        "endereco": "Rua Opixe - Bairro: Vila Guarani (Zona Sul)",
        "cep": "04312-080",
        "latitude": -23.649259,
        "longitude": -46.630235
    },
    {
        "ecoponto": "Jabaquara",
        "endereco": "Rua Jupatis, nº140 – Bairro: Vila Mira",
        "cep": "04377-200",
        "latitude": -23.654737,
        "longitude": -46.630593
    },
    {
        "ecoponto": "Anselmo Machado",
        "endereco": "Avenida Paulo Lincoln do Valle Pontin, altura do nº 550 – Bairro: Jaçanã",
        "cep": "02273-011",
        "latitude": -23.470994,
        "longitude": -46.577340
    },
    {
        "ecoponto": "Silvio Bittencourt",
        "endereco": "Rua Maria Amália Lopes Azevedo, nº 4008 – Bairro: Vila Albertina",
        "cep": "02350-003",
        "latitude": -23.462939,
        "longitude": -46.596374
    },
    {
        "ecoponto": "Viaduto Antártica",
        "endereco": "Rua Robert Bosch (Baixos Viaduto Antártica) – Bairro: Parque Industrial Tomas Edson",
        "cep": "01141-010",
        "latitude": -23.518147,
        "longitude": -46.673464
    },
    {
        "ecoponto": "Vila Jaguara",
        "endereco": "Rua Agrestina, nº 189 – Bairro: Vila Jaguara",
        "cep": "05117-100",
        "latitude": -23.515733,
        "longitude": -46.751615
    },
    {
        "ecoponto": "Piraporinha",
        "endereco": "Rua João de Abreu, nº326 – Bairro: Jardim Tupã",
        "cep": "04904-000",
        "latitude": -23.665916,
        "longitude": -46.740864
    },
    {
        "ecoponto": "Viaduto Engenheiro Alberto Badra",
        "endereco": "Avenida Aricanduva, nº 200 - Praça Lúcia Mekhitarian – Bairro: Aricanduva (baixo do Viaduto Engenheiro Alberto Badra)",
        "cep": "03501-010",
        "latitude": -23.5465,
        "longitude": -46.5260
    },
    {
        "ecoponto": "São Luis",
        "endereco": "Rua Pedro Armani, nº 252 – Bairro: Jardim Letícia",
        "cep": "05820-220",
        "latitude": -23.6449,
        "longitude": -46.7519
    },
    {
        "ecoponto": "Bresser",
        "endereco": "Pça. Giuseppe Cesari, nº 54 (Baixo do Viaduto Bresser) – Bairro: Brás",
        "cep": "03053-000",
        "latitude": -23.5432,
        "longitude": -46.6164
    },
    {
        "ecoponto": "Tatuapé",
        "endereco": "Avenida Salim Farah Maluf, nº 179, Praça Tito Lívio Ferreira (Central de Triagem) – Bairro: Tatuapé",
        "cep": "03076-000",
        "latitude": -23.5449,
        "longitude": -46.5769
    },
    {
        "ecoponto": "Brás",
        "endereco": "Avenida Presidente Wilson, nº 1 (Baixo Viaduto Professor Alberto Mesquita de Carvalho) – Bairro: Mooca",
        "cep": "03107-000",
        "latitude": -23.5455,
        "longitude": -46.6109
    },
    {
        "ecoponto": "Mooca",
        "endereco": "Avenida Pires do Rio, nº 600 (Baixo Viaduto Bresser) – Bairro: Belenzinho",
        "cep": "03163-010",
        "latitude": -23.5541,
        "longitude": -46.6082
    },
    {
        "ecoponto": "Pari",
        "endereco": "Avenida Carlos de Campos, nº 996 (defronte), esquina com Avenida Presidente Castelo Branco – Bairro: Pari",
        "cep": "03028-001",
        "latitude": -23.5377,
        "longitude": -46.6224
    },
    {
        "ecoponto": "Belém",
        "endereco": "Rua Belarmino Matos, nº 26 (baixos do Viaduto Guadalajara) – Bairro: Belenzinho",
        "cep": "03062-030",
        "latitude": -23.5377,
        "longitude": -46.6052
    },
    {
        "ecoponto": "Vila Luisa",
        "endereco": "Praça Dante Maron, nº 92 (Baixos Viaduto Engenheiro Alberto Badra) – Bairro: Guaiúna",
        "cep": "03631-230",
        "latitude": -23.5484,
        "longitude": -46.5381
    },
    {
        "ecoponto": "Água Rasa",
        "endereco": "Av. Salim Farah Maluf, nº 1500 – Bairro: Quarta Parada",
        "cep": "03304-090",
        "latitude": -23.5663,
        "longitude": -46.5816
    },
    {
        "ecoponto": "Mendes Caldeira",
        "endereco": "Rua Monsenhor Andrade, nº 865 – Bairro: Brás",
        "cep": "03008-000",
        "latitude": -23.5425,
        "longitude": -46.6191
    },
    {
        "ecoponto": "Mooca ll",
        "endereco": "Rua Pantojo, nº 1.147 – Bairro: Vila Regente Feijó",
        "cep": "03343-000",
        "latitude": -23.5678,
        "longitude": -46.5739
    },
    {
        "ecoponto": "Penha I",
        "endereco": "Rua Doutor. Heládio, nº 104 – Bairro: Vila Esperança",
        "cep": "03650-020",
        "latitude": -23.5372,
        "longitude": -46.5097
    },
    {
        "ecoponto": "Tiquatira",
        "endereco": "Rua Amorim Diniz, nº 415 – Bairro: Jardim Jaú (Zona Leste)",
        "cep": "03730-040",
        "latitude": -23.5236,
        "longitude": -46.4905
    },
    {
        "ecoponto": "Gamelinha",
        "endereco": "Rua Morfeu, nº 25, esquina com Avenida Edgar dos Santos – Bairro: Jardim Santo Antônio",
        "cep": "03554-000",
        "latitude": -23.5498,
        "longitude": -46.4675
    },
    {
        "ecoponto": "Vila Matilde",
        "endereco": "Rua Mateus de Siqueira, nº 375, com Praça Leonildes Ramos Saigo - Bairro: Jardim Triana",
        "cep": "03554-000",
        "latitude": -23.5402,
        "longitude": -46.5077
    },
    {
        "ecoponto": "Cangaíba",
        "endereco": "Rua Luciano Nogueira, altura do nº 241 – Bairro: Cangaíba",
        "cep": "03721-080",
        "latitude": -23.5241,
        "longitude": -46.4843
    },
    {
        "ecoponto": "Franquinho",
        "endereco": "Rua Praia de Mucuripe, nº 685 – Bairro: Jardim Artur Alvim",
        "cep": "03687-100",
        "latitude": -23.5397,
        "longitude": -46.4624
    },
    {
        "ecoponto": "Dalila",
        "endereco": "Rua Inacio da Costa nº 740, esquina com a Avenida Aricanduva – Bairro: Vila Dalila",
        "cep": "03520-030",
        "latitude": -23.5385,
        "longitude": -46.5022
    },
    {
        "ecoponto": "COHAB Artur Alvim",
        "endereco": "Avenida. Padre Estanislau de Campos nº 56 – Bairro: Conjunto Habitacional Padre Manoel da Nóbrega",
        "cep": "03590-060",
        "latitude": -23.5518,
        "longitude": -46.4799
    },
    {
        "ecoponto": "Vila Talarico",
        "endereco": "Avenida Bernardino Brito Fonseca de Carvalho, nº 1.050 – Bairro: Vila Talarico",
        "cep": "03535-000",
        "latitude": -23.5386,
        "longitude": -46.5041
    },
    {
        "ecoponto": "Recanto dos Humildes",
        "endereco": "Rua Sales Gomes, nº 415 – Bairro: Vila Perus",
        "cep": "05211-200",
        "latitude": -23.3914,
        "longitude": -46.7465
    },
    {
        "ecoponto": "Jardim Santa Fé",
        "endereco": "Rua Salvador Albano nº156 – Bairro: Jardim Santa Fé (Zona Oeste)",
        "cep": "05271-090",
        "latitude": -23.4353,
        "longitude": -46.7431
    },
    {
        "ecoponto": "Pinheiros",
        "endereco": "Praça do Cancioneiro, nº 15 (Baixos da Ponte Engenheiro Ary Torres) – Bairro: Cidade Monções",
        "cep": "04571-200",
        "latitude": -23.5727,
        "longitude": -46.6921
    },
    {
        "ecoponto": "Vila Madalena",
        "endereco": "Rua Girassol, nº 15, esquina Rua Luís Murat – Bairro: Vila Madalena",
        "cep": "05433-000",
        "latitude": -23.5503,
        "longitude": -46.6904
    },
    {
        "ecoponto": "Alto de Pinheiros",
        "endereco": "Praça Arcipreste Anselmo de Oliveira – Bairro: Alto de Pinheiros",
        "cep": "05463-080",
        "latitude": -23.5484,
        "longitude": -46.7066
    },
    {
        "ecoponto": "Cônego José Salomon",
        "endereco": "Avenida. Cônego José Salomon, nº 861 – Bairro: Vila Portugal",
        "cep": "02918-170",
        "latitude": -23.4923,
        "longitude": -46.7064
    },
    {
        "ecoponto": "Vigário Godói",
        "endereco": "Rua Vigário Godói, nº 480 – Bairro: Vila Zat",
        "cep": "02976-080",
        "latitude": -23.4942,
        "longitude": -46.7351
    },
    {
        "ecoponto": "Voith",
        "endereco": "Avenida Atílio Brugnoli, nº 489 – Bairro: Parque Nações Unidas",
        "cep": "02996-010",
        "latitude": -23.5159,
        "longitude": -46.7304
    },
    {
        "ecoponto": "Alexios Jafet",
        "endereco": "Rua Alexios Jafet, nº 233 – Bairro: Jardim Ipanema (Zona Oeste)",
        "cep": "05187-010",
        "latitude": -23.5724,
        "longitude": -46.8135
    },
    {
        "ecoponto": "Tucuruvi",
        "endereco": "Rua Eduardo Vicente Nasser, nº 519 – Bairro: Barro Branco (Zona Norte)",
        "cep": "02344-050",
        "latitude": -23.4856,
        "longitude": -46.6111
    },
    {
        "ecoponto": "Santana",
        "endereco": "Avenida Zaki Narchi, nº375 – Bairro: Carandiru",
        "cep": "02029-000",
        "latitude": -23.5102,
        "longitude": -46.6171
    },
    {
        "ecoponto": "Alceu Maynard de Araújo",
        "endereco": "Avenida Professor Alceu Maynard de Araújo, nº 330 - ao lado da Central de Triagem – Bairro Vila Cruzeiro",
        "cep": "04728-110",
        "latitude": -23.6489,
        "longitude": -46.7202
    },
    {
        "ecoponto": "Vicente Rao",
        "endereco": "Avenida Vicente Rao, nº 308 sentido Diadema (Baixo do Viaduto José Diniz) – Bairro: Jardim Petrópolis",
        "cep": "04636-000",
        "latitude": -23.6514,
        "longitude": -46.6926
    },
    {
        "ecoponto": "Pedro Bueno",
        "endereco": "Rua João de Lery, altura do nº 503 – Bairro: Parque Jabaquara",
        "cep": "04356-030",
        "latitude": -23.6534,
        "longitude": -46.6441
    },
    {
        "ecoponto": "Vitor Manzini",
        "endereco": "Praça Dom Francisco de Sousa, nº 635 – Bairro: Santo Amaro",
        "cep": "04745-050",
        "latitude": -23.6564,
        "longitude": -46.6912
    },
    {
        "ecoponto": "Cipoaba",
        "endereco": "Rua Padre Luis de Siqueira, nº 947, com Avenida Rodolfo Pirani - Bairro: Jardim Rodolfo Pirani",
        "cep": "08310-260",
        "latitude": -23.6815,
        "longitude": -46.4177
    },
    {
        "ecoponto": "Iguatemi",
        "endereco": "Rua Francisco de Melo Palheta, nº1548 – Bairro: Parque Boa Esperança",
        "cep": "08341-235",
        "latitude": -23.6998,
        "longitude": -46.4329
    },
    {
        "ecoponto": "Montalvania",
        "endereco": "Rua Montalvania nº 195 – Bairro: Jardim São Cristóvão",
        "cep": "03930-095",
        "latitude": -23.6076,
        "longitude": -46.4793
    },
    {
        "ecoponto": "Lima Bonfante",
        "endereco": "Rua Capitão-mor Lázaro da Costa, nº 251 – Bairro: Jardim São Francisco",
        "cep": "08390-260",
        "latitude": -23.6753,
        "longitude": -46.4157
    },
    {
        "ecoponto": "Imperador",
        "endereco": "Avenida. Ribeirão Jacu, nº 201 (Baixo do Viaduto Jacu Pêssego) – Bairro: Jardim das Camélias",
        "cep": "08050-420",
        "latitude": -23.5927,
        "longitude": -46.4418
    },
    {
        "ecoponto": "Carlito Maia",
        "endereco": "Rua Domingos Fernandes Nobre, nº 109 – Bairro: Vila Itaim",
        "cep": "08190-300",
        "latitude": -23.5057,
        "longitude": -46.4384
    },
    {
        "ecoponto": "Pedro Nunes",
        "endereco": "Rua da Polka, nº 100 – Bairro: Jardim Pedro José Nunes",
        "cep": "08061-540",
        "latitude": -23.6028,
        "longitude": -46.4607
    },
    {
        "ecoponto": "Itaqueruna",
        "endereco": "Rua Domitila d'Abril, nº 88 - Bairro: Cidade Nova São Miguel",
        "cep": "08042-550",
        "latitude": -23.5288,
        "longitude": -46.4432
    },
    {
        "ecoponto": "Varre Vila",
        "endereco": "Rua Primeiro de Maio, defronte nº 106 – Bairro: União de Vila Nova",
        "cep": "08072-050",
        "latitude": -23.5483,
        "longitude": -46.4687
    },
    {
        "ecoponto": "Vitória Popular",
        "endereco": "Rua El Rey nº 508 – Bairro: Jardim São Carlos (Zona Leste)",
        "cep": "08062-520",
        "latitude": -23.5811,
        "longitude": -46.4711
    },
    {
        "ecoponto": "Jardim Helena",
        "endereco": "Rua Cosme dos Santos, nº 110 – Bairro: Jardim Helena",
        "cep": "08090-753",
        "latitude": -23.4823,
        "longitude": -46.4094
    },
    {
        "ecoponto": "Jardim Romano",
        "endereco": "Rua Duarte Martins Mourão, nº 400 – Bairro: Jardim Santa Margarida",
        "cep": "08191-250",
        "latitude": -23.5503,
        "longitude": -46.4318
    },
    {
        "ecoponto": "Jardim Lapena",
        "endereco": "Rua Rafael Zimbard, altura do nº78 – Bairro Jardim Nair",
        "cep": "08071-130",
        "latitude": -23.5429,
        "longitude": -46.4878
    },
    {
        "ecoponto": "Sapopemba",
        "endereco": "Rua Francesco Usper, nº 550 – Bairro Conjunto Habitacional Teotonio Vilela",
        "cep": "03928-235",
        "latitude": -23.6111,
        "longitude": -46.4985
    },
    {
        "ecoponto": "Vila Cardoso Franco",
        "endereco": "Rua dos Vorás, nº 25 – Bairro: Conjunto Residencial Sitio Oratório",
        "cep": "03978-310",
        "latitude": -23.6006,
        "longitude": -46.4474
    },
    {
        "ecoponto": "Reynaldo José",
        "endereco": "Rua Silvestro Silvestre, nº 400 – Bairro: Jardim Ângela (Zona Leste)",
        "cep": "03985-000",
        "latitude": -23.6953,
        "longitude": -46.5085
    },
    {
        "ecoponto": "Joaquim Catuna",
        "endereco": "Rua Luca Conforti, nº210 - Bairro Fazenda da Juta",
        "cep": "03977-417",
        "latitude": -23.6172,
        "longitude": -46.4293
    },
    {
        "ecoponto": "Glicério",
        "endereco": "Praça Ministro Francisco Sá Carneiro, nº 6 (Baixos do Viaduto Glicério, acesso pela Avenida do Estado, 4434) - Bairro: Liberdade",
        "cep": "01517-100",
        "latitude": -23.5501,
        "longitude": -46.6336
    },
    {
        "ecoponto": "Liberdade",
        "endereco": "Rua Jaceguai, nº 67, esquina com a Avenida Liberdade – Bairro: Bela Vista",
        "cep": "01315-010",
        "latitude": -23.5616,
        "longitude": -46.6322
    },
    {
        "ecoponto": "Armênia",
        "endereco": "Rua General Carmona, nº 156 – Bairro: Luz",
        "cep": "01102-030",
        "latitude": -23.5247,
        "longitude": -46.6281
    },
    {
        "ecoponto": "Cambuci",
        "endereco": "Avenida Dom Pedro I, nº 38 – Bairro: Vila Monumento",
        "cep": "01552-001",
        "latitude": -23.5602,
        "longitude": -46.6138
    },
    {
        "ecoponto": "General Flores (Fora de Operação - Temporariamente)",
        "endereco": "Rua General Flores, nº 10 – Bairro: Bom Retiro",
        "cep": "01129-010",
        "latitude": -23.5296,
        "longitude": -46.6429
    },
    {
        "ecoponto": "Bela Vista",
        "endereco": "Rua Quatorze de Julho, nº 59 – Bairro: Bela Vista",
        "cep": "01324-040",
        "latitude": -23.5679,
        "longitude": -46.6481
    },
    {
        "ecoponto": "Vila Guilherme",
        "endereco": "Rua José Bernardo Pinto, nº 1480 – Bairro: Vila Guilherme",
        "cep": "02055-001",
        "latitude": -23.5145,
        "longitude": -46.5904
    },
    {
        "ecoponto": "Vila Sabrina",
        "endereco": "Avenida do Poeta, nº 931 – Bairro: Jardim Julieta",
        "cep": "02161-160",
        "latitude": -23.5012,
        "longitude": -46.5713
    },

    {
        "ecoponto": "Vila Maria",
        "endereco": "Rua Curuçá, nº 1.700 - Bairro: Jardim Andaraí",
        "cep": "02168-150",
        "latitude": -23.5077,
        "longitude": -46.5996
    },
    {
        "ecoponto": "Vila Mariana",
        "endereco": "Rua Mauricio Francisco Klabin, nº37 – Bairro: Vila Mariana",
        "cep": "04120-020",
        "latitude": -23.5856,
        "longitude": -46.6382
    },
    {
        "ecoponto": "Saioa",
        "endereco": "Rua Mary Baida Salem, nº01 – Bairro: Vila Firmiano Pinto",
        "cep": "04124-210",
        "latitude": -23.6099,
        "longitude": -46.6259
    },
    {
        "ecoponto": "Rubem Berta",
        "endereco": "Avenida Rubem Berta, 1100 (baixo do Viaduto Onze de Junho) - Bairro:",
        "cep": "04014-010",
        "latitude": -23.6165,
        "longitude": -46.6521
    },
    {
        "ecoponto": "Anhaia Mello",
        "endereco": "Rua da Prece, nº 296 – Bairro: Vila Prudente",
        "cep": "03156-210",
        "latitude": -23.5863,
        "longitude": -46.5674
    },
    {
        "ecoponto": "São Lucas",
        "endereco": "Rua Florêncio Sanches, nº 307 – Bairro: Parque Residencial Oratorio",
        "cep": "03266-120",
        "latitude": -23.6101,
        "longitude": -46.5367
    },
    {
        "ecoponto": "Vila Industrial",
        "endereco": "Rua Lisa Ansorge, altura do nº 645 – Bairro: Jardim Guairacá",
        "cep": "03244-060",
        "latitude": -23.6079,
        "longitude": -46.5174
    }
]